[
  {
    "name": "Japan",
    "code": "JP",
    "continent": "Asia",
    
    "cities": [
      {
        "name": "Tokyo",
        
        "latitude": 35.687,
        "longitude": 139.7495
      },
      {
        "name": "Ōsaka",
        
        "latitude": 34.6939,
        "longitude": 135.5022
      },
      {
        "name": "Nagoya",
        
        "latitude": 35.1833,
        "longitude": 136.9
      },
      {
        "name": "Yokohama",
        
        "latitude": 35.4442,
        "longitude": 139.6381
      },
      {
        "name": "Fukuoka",
        
        "latitude": 33.59,
        "longitude": 130.4017
      },
      {
        "name": "Sapporo",
        
        "latitude": 43.0619,
        "longitude": 141.3544
      },
      {
        "name": "Kawasaki",
        
        "latitude": 35.5167,
        "longitude": 139.7
      },
      {
        "name": "Kōbe",
        
        "latitude": 34.69,
        "longitude": 135.1956
      },
      {
        "name": "Kyōto",
        
        "latitude": 35.0117,
        "longitude": 135.7683
      },
      {
        "name": "Saitama",
        
        "latitude": 35.8614,
        "longitude": 139.6456
      }
    ]
  },
  {
    "name": "Indonesia",
    "code": "ID",
    "continent": "Asia",
    
    "cities": [
      {
        "name": "Jakarta",
        
        "latitude": -6.175,
        "longitude": 106.8275
      },
      {
        "name": "Surabaya",
        
        "latitude": -7.2458,
        "longitude": 112.7378
      },
      {
        "name": "Medan",
        
        "latitude": 3.5894,
        "longitude": 98.6739
      },
      {
        "name": "Malang",
        
        "latitude": -7.98,
        "longitude": 112.62
      },
      {
        "name": "Bekasi",
        
        "latitude": -6.2333,
        "longitude": 107.0
      },
      {
        "name": "Depok",
        
        "latitude": -6.394,
        "longitude": 106.8225
      },
      {
        "name": "Tangerang",
        
        "latitude": -6.1703,
        "longitude": 106.6403
      },
      {
        "name": "Semarang",
        
        "latitude": -6.99,
        "longitude": 110.4225
      },
      {
        "name": "Palembang",
        
        "latitude": -2.9861,
        "longitude": 104.7556
      },
      {
        "name": "Sangereng",
        
        "latitude": -6.2889,
        "longitude": 106.7181
      }
    ]
  },
  {
    "name": "India",
    "code": "IN",
    "continent": "Asia",
    
    "cities": [
      {
        "name": "Delhi",
        
        "latitude": 28.61,
        "longitude": 77.23
      },
      {
        "name": "Mumbai",
        
        "latitude": 19.0761,
        "longitude": 72.8775
      },
      {
        "name": "Kolkāta",
        
        "latitude": 22.5675,
        "longitude": 88.37
      },
      {
        "name": "Bangalore",
        
        "latitude": 12.9789,
        "longitude": 77.5917
      },
      {
        "name": "Chennai",
        
        "latitude": 13.0825,
        "longitude": 80.275
      },
      {
        "name": "Hyderābād",
        
        "latitude": 17.3617,
        "longitude": 78.4747
      },
      {
        "name": "Pune",
        
        "latitude": 18.5203,
        "longitude": 73.8567
      },
      {
        "name": "Ahmedabad",
        
        "latitude": 23.0225,
        "longitude": 72.5714
      },
      {
        "name": "Sūrat",
        
        "latitude": 21.205,
        "longitude": 72.84
      },
      {
        "name": "Prayagraj",
        
        "latitude": 25.4358,
        "longitude": 81.8464
      }
    ]
  },
  {
    "name": "China",
    "code": "CN",
    "continent": "Asia",
    
    "cities": [
      {
        "name": "Guangzhou",
        
        "latitude": 23.13,
        "longitude": 113.26
      },
      {
        "name": "Shanghai",
        
        "latitude": 31.2286,
        "longitude": 121.4747
      },
      {
        "name": "Beijing",
        
        "latitude": 39.9067,
        "longitude": 116.3975
      },
      {
        "name": "Shenzhen",
        
        "latitude": 22.5415,
        "longitude": 114.0596
      },
      {
        "name": "Chengdu",
        
        "latitude": 30.66,
        "longitude": 104.0633
      },
      {
        "name": "Xi’an",
        
        "latitude": 34.2611,
        "longitude": 108.9422
      },
      {
        "name": "Chongqing",
        
        "latitude": 29.5637,
        "longitude": 106.5504
      },
      {
        "name": "Linyi",
        
        "latitude": 35.1038,
        "longitude": 118.3564
      },
      {
        "name": "Dongguan",
        
        "latitude": 23.021,
        "longitude": 113.752
      },
      {
        "name": "Baoding",
        
        "latitude": 38.874,
        "longitude": 115.464
      }
    ]
  },
  {
    "name": "Philippines",
    "code": "PH",
    "continent": "Asia",
    
    "cities": [
      {
        "name": "Manila",
        
        "latitude": 14.5958,
        "longitude": 120.9772
      },
      {
        "name": "Quezon City",
        
        "latitude": 14.65,
        "longitude": 121.0475
      },
      {
        "name": "Zamboanga City",
        
        "latitude": 6.9042,
        "longitude": 122.0761
      },
      {
        "name": "Davao",
        
        "latitude": 7.07,
        "longitude": 125.6
      },
      {
        "name": "Caloocan City",
        
        "latitude": 14.65,
        "longitude": 120.97
      },
      {
        "name": "Canagatan",
        
        "latitude": 18.0,
        "longitude": 121.8
      },
      {
        "name": "Cebu City",
        
        "latitude": 10.32,
        "longitude": 123.75
      },
      {
        "name": "Masbate",
        
        "latitude": 12.27,
        "longitude": 123.58
      },
      {
        "name": "Antipolo",
        
        "latitude": 14.5842,
        "longitude": 121.1763
      },
      {
        "name": "Taguig City",
        
        "latitude": 14.52,
        "longitude": 121.05
      }
    ]
  },
  {
    "name": "Brazil",
    "code": "BR",
    "continent": "South America",
    
    "cities": [
      {
        "name": "São Paulo",
        
        "latitude": -23.5504,
        "longitude": -46.6339
      },
      {
        "name": "Rio de Janeiro",
        
        "latitude": -22.9111,
        "longitude": -43.2056
      },
      {
        "name": "Belo Horizonte",
        
        "latitude": -19.9281,
        "longitude": -43.9419
      },
      {
        "name": "Fortaleza",
        
        "latitude": -3.7275,
        "longitude": -38.5275
      },
      {
        "name": "Salvador",
        
        "latitude": -12.9831,
        "longitude": -38.4928
      },
      {
        "name": "Curitiba",
        
        "latitude": -25.4297,
        "longitude": -49.2719
      },
      {
        "name": "Recife",
        
        "latitude": -8.0539,
        "longitude": -34.8808
      },
      {
        "name": "Porto Alegre",
        
        "latitude": -30.0328,
        "longitude": -51.23
      },
      {
        "name": "Guarulhos",
        
        "latitude": -23.4667,
        "longitude": -46.5333
      },
      {
        "name": "Belém",
        
        "latitude": -1.4558,
        "longitude": -48.5039
      }
    ]
  },
  {
    "name": "Korea, South",
    "code": "KR",
    "continent": "Asia",
    
    "cities": [
      {
        "name": "Seoul",
        
        "latitude": 37.5667,
        "longitude": 126.9833
      },
      {
        "name": "Busan",
        
        "latitude": 35.18,
        "longitude": 129.075
      },
      {
        "name": "Incheon",
        
        "latitude": 37.4833,
        "longitude": 126.6333
      },
      {
        "name": "Daegu",
        
        "latitude": 35.8717,
        "longitude": 128.6017
      },
      {
        "name": "Gwangju",
        
        "latitude": 35.1653,
        "longitude": 126.8486
      },
      {
        "name": "Daejeon",
        
        "latitude": 36.35,
        "longitude": 127.385
      },
      {
        "name": "Suwon",
        
        "latitude": 37.2667,
        "longitude": 127.0167
      },
      {
        "name": "Ulsan",
        
        "latitude": 35.55,
        "longitude": 129.3167
      },
      {
        "name": "Tongjin",
        
        "latitude": 37.2333,
        "longitude": 127.2
      },
      {
        "name": "Goyang",
        
        "latitude": 37.65,
        "longitude": 126.8
      }
    ]
  },
  {
    "name": "Mexico",
    "code": "MX",
    "continent": "North America",
    
    "cities": [
      {
        "name": "Mexico City",
        
        "latitude": 19.4333,
        "longitude": -99.1333
      },
      {
        "name": "Guadalajara",
        
        "latitude": 20.6767,
        "longitude": -103.3475
      },
      {
        "name": "Monterrey",
        
        "latitude": 25.6844,
        "longitude": -100.3181
      },
      {
        "name": "Toluca",
        
        "latitude": 19.2925,
        "longitude": -99.6569
      },
      {
        "name": "Tijuana",
        
        "latitude": 32.525,
        "longitude": -117.0333
      },
      {
        "name": "Ecatepec",
        
        "latitude": 19.6097,
        "longitude": -99.06
      },
      {
        "name": "León de los Aldama",
        
        "latitude": 21.1167,
        "longitude": -101.6833
      },
      {
        "name": "Puebla",
        
        "latitude": 19.0333,
        "longitude": -98.1833
      },
      {
        "name": "Zapopan",
        
        "latitude": 20.7167,
        "longitude": -103.4
      },
      {
        "name": "Juárez",
        
        "latitude": 31.745,
        "longitude": -106.485
      }
    ]
  },
  {
    "name": "Egypt",
    "code": "EG",
    "continent": "Africa",
    
    "cities": [
      {
        "name": "Cairo",
        
        "latitude": 30.0444,
        "longitude": 31.2358
      },
      {
        "name": "Giza",
        
        "latitude": 29.987,
        "longitude": 31.2118
      },
      {
        "name": "Alexandria",
        
        "latitude": 31.1975,
        "longitude": 29.8925
      },
      {
        "name": "Shubrā al Khaymah",
        
        "latitude": 30.1286,
        "longitude": 31.2422
      },
      {
        "name": "Ashmūn",
        
        "latitude": 30.2974,
        "longitude": 30.9764
      },
      {
        "name": "Sinnūris",
        
        "latitude": 29.4072,
        "longitude": 30.8667
      },
      {
        "name": "Dayrūţ",
        
        "latitude": 27.5564,
        "longitude": 30.8106
      },
      {
        "name": "Ţūkh",
        
        "latitude": 30.3549,
        "longitude": 31.2011
      },
      {
        "name": "Al Manşūrah",
        
        "latitude": 31.05,
        "longitude": 31.3833
      },
      {
        "name": "Ḩalwān",
        
        "latitude": 29.8493,
        "longitude": 31.3327
      }
    ]
  },
  {
    "name": "Pakistan",
    "code": "PK",
    "continent": "Asia",
    
    "cities": [
      {
        "name": "Karachi",
        
        "latitude": 24.86,
        "longitude": 67.01
      },
      {
        "name": "Lahore",
        
        "latitude": 31.5497,
        "longitude": 74.3436
      },
      {
        "name": "Kotla Qasim Khan",
        
        "latitude": 32.5833,
        "longitude": 73.75
      },
      {
        "name": "Faisalabad",
        
        "latitude": 31.4167,
        "longitude": 73.0911
      },
      {
        "name": "Rawalpindi",
        
        "latitude": 33.6,
        "longitude": 73.0333
      },
      {
        "name": "Gujranwala",
        
        "latitude": 32.1567,
        "longitude": 74.19
      },
      {
        "name": "Peshawar",
        
        "latitude": 34.0144,
        "longitude": 71.5675
      },
      {
        "name": "Multan",
        
        "latitude": 30.1978,
        "longitude": 71.4697
      },
      {
        "name": "Hyderabad City",
        
        "latitude": 25.3792,
        "longitude": 68.3683
      },
      {
        "name": "Islamabad",
        
        "latitude": 33.6931,
        "longitude": 73.0639
      }
    ]
  },
  {
    "name": "Bangladesh",
    "code": "BD",
    "continent": "Asia",
    
    "cities": [
      {
        "name": "Dhaka",
        
        "latitude": 23.7289,
        "longitude": 90.3944
      },
      {
        "name": "Gāzipura",
        
        "latitude": 23.9234,
        "longitude": 90.3959
      },
      {
        "name": "Chattogram",
        
        "latitude": 22.335,
        "longitude": 91.8325
      },
      {
        "name": "Rangapukur",
        
        "latitude": 25.5206,
        "longitude": 89.2147
      },
      {
        "name": "Nārāyanganj",
        
        "latitude": 23.6167,
        "longitude": 90.5
      },
      {
        "name": "Khulna",
        
        "latitude": 22.8167,
        "longitude": 89.55
      },
      {
        "name": "Mymensingh",
        
        "latitude": 24.7504,
        "longitude": 90.38
      },
      {
        "name": "Sylhet",
        
        "latitude": 24.9,
        "longitude": 91.8667
      },
      {
        "name": "Sirājganj",
        
        "latitude": 24.45,
        "longitude": 89.7167
      },
      {
        "name": "Rājshāhi",
        
        "latitude": 24.3667,
        "longitude": 88.6
      }
    ]
  },
  {
    "name": "United States",
    "code": "US",
    "continent": "North America",
    
    "cities": [
      {
        "name": "New York",
        
        "latitude": 40.6943,
        "longitude": -73.9249
      },
      {
        "name": "Los Angeles",
        
        "latitude": 34.1141,
        "longitude": -118.4068
      },
      {
        "name": "Chicago",
        
        "latitude": 41.8375,
        "longitude": -87.6866
      },
      {
        "name": "Miami",
        
        "latitude": 25.784,
        "longitude": -80.2101
      },
      {
        "name": "Houston",
        
        "latitude": 29.786,
        "longitude": -95.3885
      },
      {
        "name": "Dallas",
        
        "latitude": 32.7935,
        "longitude": -96.7667
      },
      {
        "name": "Philadelphia",
        
        "latitude": 40.0077,
        "longitude": -75.1339
      },
      {
        "name": "Atlanta",
        
        "latitude": 33.7628,
        "longitude": -84.422
      },
      {
        "name": "Washington",
        
        "latitude": 38.9047,
        "longitude": -77.0163
      },
      {
        "name": "Boston",
        
        "latitude": 42.3188,
        "longitude": -71.0852
      }
    ]
  },
  {
    "name": "Thailand",
    "code": "TH",
    "continent": "Asia",
    
    "cities": [
      {
        "name": "Bangkok",
        
        "latitude": 13.7525,
        "longitude": 100.4942
      },
      {
        "name": "Chiang Mai",
        
        "latitude": 18.7953,
        "longitude": 98.9986
      },
      {
        "name": "Nakhon Ratchasima",
        
        "latitude": 14.9806,
        "longitude": 102.1
      },
      {
        "name": "Khon Kaen",
        
        "latitude": 16.4333,
        "longitude": 102.8333
      },
      {
        "name": "Hat Yai",
        
        "latitude": 7.0167,
        "longitude": 100.4667
      },
      {
        "name": "Chon Buri",
        
        "latitude": 13.3611,
        "longitude": 100.985
      },
      {
        "name": "Phatthaya",
        
        "latitude": 12.9357,
        "longitude": 100.889
      },
      {
        "name": "Si Racha",
        
        "latitude": 13.174,
        "longitude": 100.93
      },
      {
        "name": "Phitsanulok",
        
        "latitude": 16.8158,
        "longitude": 100.2636
      },
      {
        "name": "Pak Kret",
        
        "latitude": 13.9125,
        "longitude": 100.4978
      }
    ]
  },
  {
    "name": "Russia",
    "code": "RU",
    "continent": "Europe",
    
    "cities": [
      {
        "name": "Moscow",
        
        "latitude": 55.7506,
        "longitude": 37.6175
      },
      {
        "name": "Saint Petersburg",
        
        "latitude": 59.9375,
        "longitude": 30.3086
      },
      {
        "name": "Novosibirsk",
        
        "latitude": 55.05,
        "longitude": 82.95
      },
      {
        "name": "Yekaterinburg",
        
        "latitude": 56.8356,
        "longitude": 60.6128
      },
      {
        "name": "Kazan",
        
        "latitude": 55.7964,
        "longitude": 49.1089
      },
      {
        "name": "Nizhniy Novgorod",
        
        "latitude": 56.3269,
        "longitude": 44.0075
      },
      {
        "name": "Chelyabinsk",
        
        "latitude": 55.1547,
        "longitude": 61.3758
      },
      {
        "name": "Samara",
        
        "latitude": 53.2028,
        "longitude": 50.1408
      },
      {
        "name": "Krasnodar",
        
        "latitude": 45.0333,
        "longitude": 38.9667
      },
      {
        "name": "Rostov",
        
        "latitude": 47.2225,
        "longitude": 39.71
      }
    ]
  },
  {
    "name": "Argentina",
    "code": "AR",
    "continent": "South America",
    
    "cities": [
      {
        "name": "Buenos Aires",
        
        "latitude": -34.6036,
        "longitude": -58.3814
      },
      {
        "name": "Córdoba",
        
        "latitude": -31.4167,
        "longitude": -64.1833
      },
      {
        "name": "Rosario",
        
        "latitude": -32.9575,
        "longitude": -60.6394
      },
      {
        "name": "Santiago del Estero",
        
        "latitude": -27.7833,
        "longitude": -64.2667
      },
      {
        "name": "La Plata",
        
        "latitude": -34.9211,
        "longitude": -57.9544
      },
      {
        "name": "Mar del Plata",
        
        "latitude": -38.0,
        "longitude": -57.55
      },
      {
        "name": "San Miguel de Tucumán",
        
        "latitude": -26.8167,
        "longitude": -65.2167
      },
      {
        "name": "Salta",
        
        "latitude": -24.7833,
        "longitude": -65.4167
      },
      {
        "name": "San Juan",
        
        "latitude": -31.5342,
        "longitude": -68.5261
      },
      {
        "name": "Lanús",
        
        "latitude": -34.7,
        "longitude": -58.4
      }
    ]
  },
  {
    "name": "Nigeria",
    "code": "NG",
    "continent": "Africa",
    
    "cities": [
      {
        "name": "Lagos",
        
        "latitude": 6.455,
        "longitude": 3.3841
      },
      {
        "name": "Kano",
        
        "latitude": 12.0,
        "longitude": 8.5167
      },
      {
        "name": "Abuja",
        
        "latitude": 9.0667,
        "longitude": 7.4833
      },
      {
        "name": "Ibadan",
        
        "latitude": 7.3964,
        "longitude": 3.9167
      },
      {
        "name": "Awka",
        
        "latitude": 6.2069,
        "longitude": 7.0678
      },
      {
        "name": "Port Harcourt",
        
        "latitude": 4.8242,
        "longitude": 7.0336
      },
      {
        "name": "Benin City",
        
        "latitude": 6.3333,
        "longitude": 5.6222
      },
      {
        "name": "Onitsha",
        
        "latitude": 6.1667,
        "longitude": 6.7833
      },
      {
        "name": "Maiduguri",
        
        "latitude": 11.8372,
        "longitude": 13.1542
      },
      {
        "name": "Aba",
        
        "latitude": 5.1167,
        "longitude": 7.3667
      }
    ]
  },
  {
    "name": "Vietnam",
    "code": "VN",
    "continent": "Asia",
    
    "cities": [
      {
        "name": "Ho Chi Minh City",
        
        "latitude": 10.7756,
        "longitude": 106.7019
      },
      {
        "name": "Hanoi",
        
        "latitude": 21.0,
        "longitude": 105.85
      },
      {
        "name": "Haiphong",
        
        "latitude": 20.8651,
        "longitude": 106.6838
      },
      {
        "name": "Biên Hòa",
        
        "latitude": 10.95,
        "longitude": 106.8167
      },
      {
        "name": "Cần Thơ",
        
        "latitude": 10.0333,
        "longitude": 105.7833
      },
      {
        "name": "Ninh Bình",
        
        "latitude": 20.25,
        "longitude": 105.8333
      },
      {
        "name": "Thủ Đức",
        
        "latitude": 10.8266,
        "longitude": 106.7609
      },
      {
        "name": "Thanh Hóa",
        
        "latitude": 19.8075,
        "longitude": 105.7764
      },
      {
        "name": "Vinh",
        
        "latitude": 18.6667,
        "longitude": 105.6667
      },
      {
        "name": "Huế",
        
        "latitude": 16.4619,
        "longitude": 107.5955
      }
    ]
  },
  {
    "name": "Turkey",
    "code": "TR",
    "continent": "Asia",
    
    "cities": [
      {
        "name": "Istanbul",
        
        "latitude": 41.0136,
        "longitude": 28.955
      },
      {
        "name": "Ankara",
        
        "latitude": 39.93,
        "longitude": 32.85
      },
      {
        "name": "Bursa",
        
        "latitude": 40.1833,
        "longitude": 29.05
      },
      {
        "name": "İzmir",
        
        "latitude": 38.42,
        "longitude": 27.14
      },
      {
        "name": "Konya",
        
        "latitude": 37.8667,
        "longitude": 32.4833
      },
      {
        "name": "Gaziantep",
        
        "latitude": 37.0628,
        "longitude": 37.3792
      },
      {
        "name": "Diyarbakır",
        
        "latitude": 37.91,
        "longitude": 40.24
      },
      {
        "name": "Adana",
        
        "latitude": 37.0,
        "longitude": 35.3213
      },
      {
        "name": "Kayseri",
        
        "latitude": 38.7225,
        "longitude": 35.4875
      },
      {
        "name": "Samsun",
        
        "latitude": 41.2903,
        "longitude": 36.3336
      }
    ]
  },
  {
    "name": "Iran",
    "code": "IR",
    "continent": "Asia",
    
    "cities": [
      {
        "name": "Tehran",
        
        "latitude": 35.6889,
        "longitude": 51.3897
      },
      {
        "name": "Mashhad",
        
        "latitude": 36.3264,
        "longitude": 59.5433
      },
      {
        "name": "Eşfahān",
        
        "latitude": 32.6653,
        "longitude": 51.6703
      },
      {
        "name": "Karaj",
        
        "latitude": 35.8292,
        "longitude": 50.9675
      },
      {
        "name": "Shīrāz",
        
        "latitude": 29.61,
        "longitude": 52.5425
      },
      {
        "name": "Tabrīz",
        
        "latitude": 38.0817,
        "longitude": 46.2992
      },
      {
        "name": "Ahvāz",
        
        "latitude": 31.3047,
        "longitude": 48.6783
      },
      {
        "name": "Qom",
        
        "latitude": 34.64,
        "longitude": 50.8764
      },
      {
        "name": "Kermānshāh",
        
        "latitude": 34.3369,
        "longitude": 47.0911
      },
      {
        "name": "Kermān",
        
        "latitude": 30.2625,
        "longitude": 57.0575
      }
    ]
  },
  {
    "name": "Congo (Kinshasa)",
    "code": "CD",
    "continent": "Africa",
    
    "cities": [
      {
        "name": "Kinshasa",
        
        "latitude": -4.3219,
        "longitude": 15.3119
      },
      {
        "name": "Mbuji-Mayi",
        
        "latitude": -6.15,
        "longitude": 23.6
      },
      {
        "name": "Kananga",
        
        "latitude": -5.897,
        "longitude": 22.4488
      },
      {
        "name": "Lubumbashi",
        
        "latitude": -11.6647,
        "longitude": 27.4794
      },
      {
        "name": "Mbandaka",
        
        "latitude": 0.0478,
        "longitude": 18.2558
      },
      {
        "name": "Bukavu",
        
        "latitude": -2.5061,
        "longitude": 28.8608
      },
      {
        "name": "Kisangani",
        
        "latitude": 0.5167,
        "longitude": 25.2
      },
      {
        "name": "Tshikapa",
        
        "latitude": -6.4167,
        "longitude": 20.8
      },
      {
        "name": "Kibanseke Première",
        
        "latitude": -4.4419,
        "longitude": 15.395
      },
      {
        "name": "Bunia",
        
        "latitude": 1.5667,
        "longitude": 30.25
      }
    ]
  },
  {
    "name": "United Kingdom",
    "code": "GB",
    "continent": "Europe",
    
    "cities": [
      {
        "name": "London",
        
        "latitude": 51.5072,
        "longitude": -0.1275
      },
      {
        "name": "Birmingham",
        
        "latitude": 52.48,
        "longitude": -1.9025
      },
      {
        "name": "Portsmouth",
        
        "latitude": 50.8058,
        "longitude": -1.0872
      },
      {
        "name": "Southampton",
        
        "latitude": 50.9025,
        "longitude": -1.4042
      },
      {
        "name": "Bristol",
        
        "latitude": 51.4536,
        "longitude": -2.5975
      },
      {
        "name": "Glasgow",
        
        "latitude": 55.8611,
        "longitude": -4.25
      },
      {
        "name": "Manchester",
        
        "latitude": 53.479,
        "longitude": -2.2452
      },
      {
        "name": "Leeds",
        
        "latitude": 53.7975,
        "longitude": -1.5436
      },
      {
        "name": "Sheffield",
        
        "latitude": 53.3808,
        "longitude": -1.4703
      },
      {
        "name": "Liverpool",
        
        "latitude": 53.4072,
        "longitude": -2.9917
      }
    ]
  },
  {
    "name": "France",
    "code": "FR",
    "continent": "Europe",
    
    "cities": [
      {
        "name": "Paris",
        
        "latitude": 48.8567,
        "longitude": 2.3522
      },
      {
        "name": "Bordeaux",
        
        "latitude": 44.84,
        "longitude": -0.58
      },
      {
        "name": "Marseille",
        
        "latitude": 43.2964,
        "longitude": 5.37
      },
      {
        "name": "Lyon",
        
        "latitude": 45.76,
        "longitude": 4.84
      },
      {
        "name": "Toulouse",
        
        "latitude": 43.6045,
        "longitude": 1.444
      },
      {
        "name": "Nice",
        
        "latitude": 43.7034,
        "longitude": 7.2663
      },
      {
        "name": "Nantes",
        
        "latitude": 47.2181,
        "longitude": -1.5528
      },
      {
        "name": "Montpellier",
        
        "latitude": 43.6119,
        "longitude": 3.8772
      },
      {
        "name": "Strasbourg",
        
        "latitude": 48.5833,
        "longitude": 7.7458
      },
      {
        "name": "Lille",
        
        "latitude": 50.6278,
        "longitude": 3.0583
      }
    ]
  },
  {
    "name": "Peru",
    "code": "PE",
    "continent": "South America",
    
    "cities": [
      {
        "name": "Lima",
        
        "latitude": -12.06,
        "longitude": -77.0375
      },
      {
        "name": "Arequipa",
        
        "latitude": -16.3989,
        "longitude": -71.5369
      },
      {
        "name": "Trujillo",
        
        "latitude": -8.112,
        "longitude": -79.0288
      },
      {
        "name": "Chiclayo",
        
        "latitude": -6.763,
        "longitude": -79.8366
      },
      {
        "name": "Piura",
        
        "latitude": -5.2,
        "longitude": -80.6333
      },
      {
        "name": "Cusco",
        
        "latitude": -13.525,
        "longitude": -71.9722
      },
      {
        "name": "Callao",
        
        "latitude": -12.0522,
        "longitude": -77.1392
      },
      {
        "name": "Huancayo",
        
        "latitude": -12.0667,
        "longitude": -75.2167
      },
      {
        "name": "Iquitos",
        
        "latitude": -3.75,
        "longitude": -73.25
      },
      {
        "name": "Pucallpa",
        
        "latitude": -8.3833,
        "longitude": -74.55
      }
    ]
  },
  {
    "name": "Angola",
    "code": "AO",
    "continent": "Africa",
    
    "cities": [
      {
        "name": "Luanda",
        
        "latitude": -8.8383,
        "longitude": 13.2344
      },
      {
        "name": "Cacuaco",
        
        "latitude": -8.8053,
        "longitude": 13.2444
      },
      {
        "name": "Cazenga",
        
        "latitude": -8.8214,
        "longitude": 13.2911
      },
      {
        "name": "Lubango",
        
        "latitude": -14.9167,
        "longitude": 13.5
      },
      {
        "name": "Cabinda",
        
        "latitude": -5.56,
        "longitude": 12.19
      },
      {
        "name": "Huambo",
        
        "latitude": -12.7767,
        "longitude": 15.7347
      },
      {
        "name": "Malanje",
        
        "latitude": -9.5333,
        "longitude": 16.35
      },
      {
        "name": "Benguela",
        
        "latitude": -12.55,
        "longitude": 13.4167
      },
      {
        "name": "Cuito",
        
        "latitude": -12.3833,
        "longitude": 16.9333
      },
      {
        "name": "Belas",
        
        "latitude": -8.9983,
        "longitude": 13.265
      }
    ]
  },
  {
    "name": "Malaysia",
    "code": "MY",
    "continent": "Asia",
    
    "cities": [
      {
        "name": "Kuala Lumpur",
        
        "latitude": 3.1686,
        "longitude": 101.698
      },
      {
        "name": "Seberang Jaya",
        
        "latitude": 5.3909,
        "longitude": 100.4104
      },
      {
        "name": "Klang",
        
        "latitude": 3.0223,
        "longitude": 101.5481
      },
      {
        "name": "Ipoh",
        
        "latitude": 4.6,
        "longitude": 101.065
      },
      {
        "name": "George Town",
        
        "latitude": 5.4136,
        "longitude": 100.3294
      },
      {
        "name": "Petaling Jaya",
        
        "latitude": 3.0833,
        "longitude": 101.65
      },
      {
        "name": "Kuantan",
        
        "latitude": 3.83,
        "longitude": 103.32
      },
      {
        "name": "Shah Alam",
        
        "latitude": 3.0667,
        "longitude": 101.55
      },
      {
        "name": "Sungai Petani",
        
        "latitude": 5.6497,
        "longitude": 100.4793
      },
      {
        "name": "Johor Bahru",
        
        "latitude": 1.482,
        "longitude": 103.7281
      }
    ]
  },
  {
    "name": "Colombia",
    "code": "CO",
    "continent": "South America",
    
    "cities": [
      {
        "name": "Bogotá",
        
        "latitude": 4.7111,
        "longitude": -74.0722
      },
      {
        "name": "Cali",
        
        "latitude": 3.4206,
        "longitude": -76.5222
      },
      {
        "name": "Medellín",
        
        "latitude": 6.2308,
        "longitude": -75.5906
      },
      {
        "name": "Barranquilla",
        
        "latitude": 10.9833,
        "longitude": -74.8019
      },
      {
        "name": "Cartagena",
        
        "latitude": 10.4,
        "longitude": -75.5
      },
      {
        "name": "Bucaramanga",
        
        "latitude": 7.1333,
        "longitude": -73.0
      },
      {
        "name": "Cúcuta",
        
        "latitude": 7.8942,
        "longitude": -72.5039
      },
      {
        "name": "Palermo",
        
        "latitude": 2.8917,
        "longitude": -75.4375
      },
      {
        "name": "Soledad",
        
        "latitude": 10.9167,
        "longitude": -74.75
      },
      {
        "name": "Villavicencio",
        
        "latitude": 4.15,
        "longitude": -73.6333
      }
    ]
  },
  {
    "name": "Tanzania",
    "code": "TZ",
    "continent": "Africa",
    
    "cities": [
      {
        "name": "Dar es Salaam",
        
        "latitude": -6.8161,
        "longitude": 39.2803
      },
      {
        "name": "Mwanza",
        
        "latitude": -2.5167,
        "longitude": 32.9
      },
      {
        "name": "Ubungo",
        
        "latitude": -6.7889,
        "longitude": 39.2056
      },
      {
        "name": "Dodoma",
        
        "latitude": -6.1731,
        "longitude": 35.7419
      },
      {
        "name": "Arusha",
        
        "latitude": -3.3667,
        "longitude": 36.6833
      },
      {
        "name": "Mbeya",
        
        "latitude": -8.9,
        "longitude": 33.45
      },
      {
        "name": "Morogoro",
        
        "latitude": -6.8242,
        "longitude": 37.6633
      },
      {
        "name": "Kahama",
        
        "latitude": -3.8375,
        "longitude": 32.6
      },
      {
        "name": "Tanga",
        
        "latitude": -5.0742,
        "longitude": 39.0992
      },
      {
        "name": "Uvinza",
        
        "latitude": -5.1069,
        "longitude": 30.3839
      }
    ]
  },
  {
    "name": "Sudan",
    "code": "SD",
    "continent": "Africa",
    
    "cities": [
      {
        "name": "Khartoum",
        
        "latitude": 15.6031,
        "longitude": 32.5265
      },
      {
        "name": "Omdurman",
        
        "latitude": 15.6835,
        "longitude": 32.4629
      },
      {
        "name": "Khartoum North",
        
        "latitude": 15.6333,
        "longitude": 32.6333
      },
      {
        "name": "Port Sudan",
        
        "latitude": 19.6158,
        "longitude": 37.2164
      },
      {
        "name": "El Geneina",
        
        "latitude": 13.45,
        "longitude": 22.44
      },
      {
        "name": "Kassala",
        
        "latitude": 15.45,
        "longitude": 36.4
      },
      {
        "name": "El Fasher",
        
        "latitude": 13.63,
        "longitude": 25.35
      },
      {
        "name": "Nyala",
        
        "latitude": 12.05,
        "longitude": 24.8833
      },
      {
        "name": "El Obeid",
        
        "latitude": 13.1833,
        "longitude": 30.2167
      },
      {
        "name": "Gedaref",
        
        "latitude": 14.0333,
        "longitude": 35.3833
      }
    ]
  },
  {
    "name": "South Africa",
    "code": "ZA",
    "continent": "Africa",
    
    "cities": [
      {
        "name": "Johannesburg",
        
        "latitude": -26.2044,
        "longitude": 28.0456
      },
      {
        "name": "Cape Town",
        
        "latitude": -33.9253,
        "longitude": 18.4239
      },
      {
        "name": "Pretoria",
        
        "latitude": -25.7461,
        "longitude": 28.1881
      },
      {
        "name": "Soweto",
        
        "latitude": -26.2678,
        "longitude": 27.8585
      },
      {
        "name": "Gqeberha",
        
        "latitude": -33.9581,
        "longitude": 25.6
      },
      {
        "name": "Pietermaritzburg",
        
        "latitude": -29.6167,
        "longitude": 30.3833
      },
      {
        "name": "Durban",
        
        "latitude": -29.8833,
        "longitude": 31.05
      },
      {
        "name": "Rustenburg",
        
        "latitude": -25.6667,
        "longitude": 27.2428
      },
      {
        "name": "Newcastle",
        
        "latitude": -27.7464,
        "longitude": 29.9328
      },
      {
        "name": "Katlehong",
        
        "latitude": -26.3333,
        "longitude": 28.15
      }
    ]
  },
  {
    "name": "Hong Kong",
    "code": "HK",
    "continent": "Asia",
    
    "cities": [
      {
        "name": "Hong Kong",
        
        "latitude": 22.3,
        "longitude": 114.2
      },
      {
        "name": "Kowloon",
        
        "latitude": 22.3167,
        "longitude": 114.1833
      },
      {
        "name": "Sha Tin",
        
        "latitude": 22.3802,
        "longitude": 114.1898
      },
      {
        "name": "Kowloon City",
        
        "latitude": 22.3282,
        "longitude": 114.1916
      },
      {
        "name": "Sham Shui Po",
        
        "latitude": 22.3307,
        "longitude": 114.1622
      },
      {
        "name": "Tin Shui Wai",
        
        "latitude": 22.46,
        "longitude": 114.002
      },
      {
        "name": "Central District",
        
        "latitude": 22.2867,
        "longitude": 114.155
      },
      {
        "name": "Tsing Yi Town",
        
        "latitude": 22.3456,
        "longitude": 114.1
      },
      {
        "name": "Lam Tin",
        
        "latitude": 22.3094,
        "longitude": 114.2361
      },
      {
        "name": "San Tung Chung Hang",
        
        "latitude": 22.2869,
        "longitude": 113.9436
      }
    ]
  },
  {
    "name": "Saudi Arabia",
    "code": "SA",
    "continent": "Asia",
    
    "cities": [
      {
        "name": "Riyadh",
        
        "latitude": 24.65,
        "longitude": 46.71
      },
      {
        "name": "Jeddah",
        
        "latitude": 21.5428,
        "longitude": 39.1728
      },
      {
        "name": "Mecca",
        
        "latitude": 21.4225,
        "longitude": 39.8261
      },
      {
        "name": "Medina",
        
        "latitude": 24.47,
        "longitude": 39.61
      },
      {
        "name": "Ad Dammām",
        
        "latitude": 26.4333,
        "longitude": 50.1
      },
      {
        "name": "Tabūk",
        
        "latitude": 28.3972,
        "longitude": 36.5789
      },
      {
        "name": "Al Hufūf",
        
        "latitude": 25.3608,
        "longitude": 49.5997
      },
      {
        "name": "Al Qaţīf",
        
        "latitude": 26.5196,
        "longitude": 50.0115
      },
      {
        "name": "Aţ Ţā’if",
        
        "latitude": 21.2667,
        "longitude": 40.4167
      },
      {
        "name": "Al Jubayl",
        
        "latitude": 27.0046,
        "longitude": 49.646
      }
    ]
  },
  {
    "name": "Chile",
    "code": "CL",
    "continent": "South America",
    
    "cities": [
      {
        "name": "Santiago",
        
        "latitude": -33.4372,
        "longitude": -70.6506
      },
      {
        "name": "Concepción",
        
        "latitude": -36.8282,
        "longitude": -73.0514
      },
      {
        "name": "Puente Alto",
        
        "latitude": -33.6167,
        "longitude": -70.5667
      },
      {
        "name": "Maipú",
        
        "latitude": -33.5167,
        "longitude": -70.7667
      },
      {
        "name": "La Florida",
        
        "latitude": -33.5333,
        "longitude": -70.5833
      },
      {
        "name": "Antofagasta",
        
        "latitude": -23.65,
        "longitude": -70.4
      },
      {
        "name": "Viña del Mar",
        
        "latitude": -33.0244,
        "longitude": -71.5517
      },
      {
        "name": "San Bernardo",
        
        "latitude": -33.5833,
        "longitude": -70.7
      },
      {
        "name": "Valparaíso",
        
        "latitude": -33.0461,
        "longitude": -71.6197
      },
      {
        "name": "Temuco",
        
        "latitude": -38.7333,
        "longitude": -72.6667
      }
    ]
  },
  {
    "name": "Burma",
    "code": "MM",
    "continent": "Asia",
    
    "cities": [
      {
        "name": "Rangoon",
        
        "latitude": 16.795,
        "longitude": 96.16
      },
      {
        "name": "Mandalay",
        
        "latitude": 21.9831,
        "longitude": 96.0844
      },
      {
        "name": "Nay Pyi Taw",
        
        "latitude": 19.7475,
        "longitude": 96.115
      },
      {
        "name": "Kyaukse",
        
        "latitude": 21.6131,
        "longitude": 96.1303
      },
      {
        "name": "Hpa-An",
        
        "latitude": 16.8906,
        "longitude": 97.6333
      },
      {
        "name": "Maungdaw",
        
        "latitude": 20.8167,
        "longitude": 92.3667
      },
      {
        "name": "Magway",
        
        "latitude": 20.15,
        "longitude": 94.95
      },
      {
        "name": "Pathein",
        
        "latitude": 16.7842,
        "longitude": 94.7333
      },
      {
        "name": "Bago",
        
        "latitude": 17.3333,
        "longitude": 96.4833
      },
      {
        "name": "Taunggyi",
        
        "latitude": 20.7836,
        "longitude": 97.0354
      }
    ]
  },
  {
    "name": "Spain",
    "code": "ES",
    "continent": "Europe",
    
    "cities": [
      {
        "name": "Madrid",
        
        "latitude": 40.4169,
        "longitude": -3.7033
      },
      {
        "name": "Barcelona",
        
        "latitude": 41.3833,
        "longitude": 2.1833
      },
      {
        "name": "Valencia",
        
        "latitude": 39.47,
        "longitude": -0.3764
      },
      {
        "name": "Sevilla",
        
        "latitude": 37.39,
        "longitude": -5.99
      },
      {
        "name": "Málaga",
        
        "latitude": 36.7194,
        "longitude": -4.42
      },
      {
        "name": "Bilbao",
        
        "latitude": 43.2569,
        "longitude": -2.9236
      },
      {
        "name": "Zaragoza",
        
        "latitude": 41.65,
        "longitude": -0.8833
      },
      {
        "name": "Murcia",
        
        "latitude": 37.9861,
        "longitude": -1.1303
      },
      {
        "name": "Las Palmas",
        
        "latitude": 28.1258,
        "longitude": -15.4353
      },
      {
        "name": "Palma",
        
        "latitude": 39.5667,
        "longitude": 2.65
      }
    ]
  },
  {
    "name": "Iraq",
    "code": "IQ",
    "continent": "Asia",
    
    "cities": [
      {
        "name": "Baghdad",
        
        "latitude": 33.3153,
        "longitude": 44.3661
      },
      {
        "name": "Mosul",
        
        "latitude": 36.3667,
        "longitude": 43.1167
      },
      {
        "name": "Al Başrah",
        
        "latitude": 30.515,
        "longitude": 47.81
      },
      {
        "name": "Kirkuk",
        
        "latitude": 35.4667,
        "longitude": 44.4
      },
      {
        "name": "As Sulaymānīyah",
        
        "latitude": 35.55,
        "longitude": 45.4333
      },
      {
        "name": "Ar Ramādī",
        
        "latitude": 33.4258,
        "longitude": 43.2992
      },
      {
        "name": "Erbil",
        
        "latitude": 36.1911,
        "longitude": 44.0094
      },
      {
        "name": "An Najaf",
        
        "latitude": 32.029,
        "longitude": 44.3396
      },
      {
        "name": "Karbalā’",
        
        "latitude": 32.6167,
        "longitude": 44.0333
      },
      {
        "name": "An Nāşirīyah",
        
        "latitude": 31.0439,
        "longitude": 46.2575
      }
    ]
  },
  {
    "name": "Singapore",
    "code": "SG",
    "continent": "Asia",
    
    "cities": [
      {
        "name": "Singapore",
        
        "latitude": 1.3,
        "longitude": 103.8
      }
    ]
  },
  {
    "name": "Cameroon",
    "code": "CM",
    "continent": "Africa",
    
    "cities": [
      {
        "name": "Douala",
        
        "latitude": 4.05,
        "longitude": 9.7
      },
      {
        "name": "Yaoundé",
        
        "latitude": 3.8667,
        "longitude": 11.5167
      },
      {
        "name": "Garoua",
        
        "latitude": 9.3,
        "longitude": 13.4
      },
      {
        "name": "Bamenda",
        
        "latitude": 5.9614,
        "longitude": 10.1517
      },
      {
        "name": "Bafoussam",
        
        "latitude": 5.4667,
        "longitude": 10.4167
      },
      {
        "name": "Maroua",
        
        "latitude": 10.5971,
        "longitude": 14.3157
      },
      {
        "name": "Ngaoundéré",
        
        "latitude": 7.3167,
        "longitude": 13.5833
      },
      {
        "name": "Nkongsamba",
        
        "latitude": 4.95,
        "longitude": 9.9333
      },
      {
        "name": "Bibémi",
        
        "latitude": 9.3167,
        "longitude": 13.8833
      },
      {
        "name": "Buea",
        
        "latitude": 4.1667,
        "longitude": 9.2333
      }
    ]
  },
  {
    "name": "Ethiopia",
    "code": "ET",
    "continent": "Africa",
    
    "cities": [
      {
        "name": "Addis Ababa",
        
        "latitude": 9.03,
        "longitude": 38.74
      },
      {
        "name": "K’ebrī Beyah",
        
        "latitude": 9.0833,
        "longitude": 43.0833
      },
      {
        "name": "K’ebrī Dehar",
        
        "latitude": 6.7333,
        "longitude": 44.2667
      },
      {
        "name": "Warder",
        
        "latitude": 6.9667,
        "longitude": 45.35
      },
      {
        "name": "Shashemenē",
        
        "latitude": 7.2,
        "longitude": 38.6
      },
      {
        "name": "Godē",
        
        "latitude": 5.9527,
        "longitude": 43.5516
      },
      {
        "name": "Nazrēt",
        
        "latitude": 8.5414,
        "longitude": 39.2689
      },
      {
        "name": "Mekele",
        
        "latitude": 13.4969,
        "longitude": 39.4769
      },
      {
        "name": "Āwasa",
        
        "latitude": 7.05,
        "longitude": 38.4667
      },
      {
        "name": "Dire Dawa",
        
        "latitude": 9.6,
        "longitude": 41.8667
      }
    ]
  },
  {
    "name": "Canada",
    "code": "CA",
    "continent": "North America",
    
    "cities": [
      {
        "name": "Toronto",
        
        "latitude": 43.7417,
        "longitude": -79.3733
      },
      {
        "name": "Montréal",
        
        "latitude": 45.5089,
        "longitude": -73.5617
      },
      {
        "name": "Vancouver",
        
        "latitude": 49.25,
        "longitude": -123.1
      },
      {
        "name": "Calgary",
        
        "latitude": 51.05,
        "longitude": -114.0667
      },
      {
        "name": "Edmonton",
        
        "latitude": 53.5344,
        "longitude": -113.4903
      },
      {
        "name": "Ottawa",
        
        "latitude": 45.4247,
        "longitude": -75.695
      },
      {
        "name": "Winnipeg",
        
        "latitude": 49.8844,
        "longitude": -97.1464
      },
      {
        "name": "Quebec City",
        
        "latitude": 46.8139,
        "longitude": -71.2081
      },
      {
        "name": "Hamilton",
        
        "latitude": 43.2567,
        "longitude": -79.8692
      },
      {
        "name": "Mississauga",
        
        "latitude": 43.6,
        "longitude": -79.65
      }
    ]
  },
  {
    "name": "Kenya",
    "code": "KE",
    "continent": "Africa",
    
    "cities": [
      {
        "name": "Nairobi",
        
        "latitude": -1.2864,
        "longitude": 36.8172
      },
      {
        "name": "Mombasa",
        
        "latitude": -4.05,
        "longitude": 39.6667
      },
      {
        "name": "Kisumu",
        
        "latitude": -0.1,
        "longitude": 34.75
      },
      {
        "name": "Kikuyu",
        
        "latitude": -1.2463,
        "longitude": 36.6629
      },
      {
        "name": "Nakuru",
        
        "latitude": -0.2833,
        "longitude": 36.0667
      },
      {
        "name": "Eldoret",
        
        "latitude": 0.5167,
        "longitude": 35.2833
      },
      {
        "name": "Kakuma",
        
        "latitude": 3.7167,
        "longitude": 34.8667
      },
      {
        "name": "Lunga-Lunga",
        
        "latitude": -4.55,
        "longitude": 39.12
      },
      {
        "name": "Habaswein",
        
        "latitude": 1.0166,
        "longitude": 39.4912
      },
      {
        "name": "Ongata Rongai",
        
        "latitude": -1.4,
        "longitude": 36.77
      }
    ]
  },
  {
    "name": "Australia",
    "code": "AU",
    "continent": "Oceania",
    
    "cities": [
      {
        "name": "Melbourne",
        
        "latitude": -37.8142,
        "longitude": 144.9631
      },
      {
        "name": "Sydney",
        
        "latitude": -33.8667,
        "longitude": 151.2
      },
      {
        "name": "Brisbane",
        
        "latitude": -27.4678,
        "longitude": 153.0281
      },
      {
        "name": "Perth",
        
        "latitude": -31.9558,
        "longitude": 115.8597
      },
      {
        "name": "Adelaide",
        
        "latitude": -34.9275,
        "longitude": 138.6
      },
      {
        "name": "Gold Coast",
        
        "latitude": -28.0167,
        "longitude": 153.4
      },
      {
        "name": "Cranbourne",
        
        "latitude": -38.0996,
        "longitude": 145.2834
      },
      {
        "name": "Canberra",
        
        "latitude": -35.2931,
        "longitude": 149.1269
      },
      {
        "name": "Central Coast",
        
        "latitude": -33.3,
        "longitude": 151.2
      },
      {
        "name": "Wollongong",
        
        "latitude": -34.4331,
        "longitude": 150.8831
      }
    ]
  },
  {
    "name": "Côte d’Ivoire",
    "code": "CI",
    "continent": "Africa",
    
    "cities": [
      {
        "name": "Abidjan",
        
        "latitude": 5.3364,
        "longitude": -4.0267
      },
      {
        "name": "Yopougon",
        
        "latitude": 5.3748,
        "longitude": -4.0867
      },
      {
        "name": "Bouaké",
        
        "latitude": 7.6833,
        "longitude": -5.0331
      },
      {
        "name": "Cocody",
        
        "latitude": 5.3351,
        "longitude": -4.0039
      },
      {
        "name": "Port-Bouët",
        
        "latitude": 5.2568,
        "longitude": -3.963
      },
      {
        "name": "Korhogo",
        
        "latitude": 9.4578,
        "longitude": -5.6294
      },
      {
        "name": "Daloa",
        
        "latitude": 6.89,
        "longitude": -6.45
      },
      {
        "name": "Koumassi",
        
        "latitude": 5.2972,
        "longitude": -3.9675
      },
      {
        "name": "San-Pédro",
        
        "latitude": 4.7704,
        "longitude": -6.64
      },
      {
        "name": "Yamoussoukro",
        
        "latitude": 6.8161,
        "longitude": -5.2742
      }
    ]
  },
  {
    "name": "Germany",
    "code": "DE",
    "continent": "Europe",
    
    "cities": [
      {
        "name": "Berlin",
        
        "latitude": 52.52,
        "longitude": 13.405
      },
      {
        "name": "Stuttgart",
        
        "latitude": 48.7775,
        "longitude": 9.18
      },
      {
        "name": "Munich",
        
        "latitude": 48.1375,
        "longitude": 11.575
      },
      {
        "name": "Hamburg",
        
        "latitude": 53.55,
        "longitude": 10.0
      },
      {
        "name": "Cologne",
        
        "latitude": 50.9364,
        "longitude": 6.9528
      },
      {
        "name": "Frankfurt",
        
        "latitude": 50.1106,
        "longitude": 8.6822
      },
      {
        "name": "Düsseldorf",
        
        "latitude": 51.2256,
        "longitude": 6.7767
      },
      {
        "name": "Leipzig",
        
        "latitude": 51.34,
        "longitude": 12.375
      },
      {
        "name": "Dortmund",
        
        "latitude": 51.5139,
        "longitude": 7.4653
      },
      {
        "name": "Essen",
        
        "latitude": 51.4508,
        "longitude": 7.0131
      }
    ]
  },
  {
    "name": "Afghanistan",
    "code": "AF",
    "continent": "Asia",
    
    "cities": [
      {
        "name": "Kabul",
        
        "latitude": 34.5253,
        "longitude": 69.1783
      },
      {
        "name": "Āqchah",
        
        "latitude": 36.9114,
        "longitude": 66.1858
      },
      {
        "name": "Kandahār",
        
        "latitude": 31.62,
        "longitude": 65.7158
      },
      {
        "name": "Herāt",
        
        "latitude": 34.3419,
        "longitude": 62.2031
      },
      {
        "name": "Farāh",
        
        "latitude": 32.3436,
        "longitude": 62.1194
      },
      {
        "name": "Mazār-e Sharīf",
        
        "latitude": 36.7,
        "longitude": 67.1167
      },
      {
        "name": "Lashkar Gāh",
        
        "latitude": 31.5831,
        "longitude": 64.3692
      },
      {
        "name": "Kunduz",
        
        "latitude": 36.7286,
        "longitude": 68.8681
      },
      {
        "name": "Jalālābād",
        
        "latitude": 34.4342,
        "longitude": 70.4478
      },
      {
        "name": "Tāluqān",
        
        "latitude": 36.7167,
        "longitude": 69.5167
      }
    ]
  },
  {
    "name": "Mali",
    "code": "ML",
    "continent": "Africa",
    
    "cities": [
      {
        "name": "Bamako",
        
        "latitude": 12.6458,
        "longitude": -7.9922
      },
      {
        "name": "Zégoua",
        
        "latitude": 10.4519,
        "longitude": -5.6511
      },
      {
        "name": "Sikasso",
        
        "latitude": 11.3167,
        "longitude": -5.6667
      },
      {
        "name": "Koutiala",
        
        "latitude": 12.3833,
        "longitude": -5.4667
      },
      {
        "name": "Ségou",
        
        "latitude": 13.45,
        "longitude": -6.2667
      },
      {
        "name": "Kayes",
        
        "latitude": 14.4497,
        "longitude": -11.4367
      },
      {
        "name": "Mopti",
        
        "latitude": 14.49,
        "longitude": -4.18
      },
      {
        "name": "Niono",
        
        "latitude": 14.25,
        "longitude": -6.0
      },
      {
        "name": "Somasso",
        
        "latitude": 12.8728,
        "longitude": -5.6033
      },
      {
        "name": "Kati",
        
        "latitude": 12.7504,
        "longitude": -8.08
      }
    ]
  },
  {
    "name": "Jordan",
    "code": "JO",
    "continent": "Asia",
    
    "cities": [
      {
        "name": "Amman",
        
        "latitude": 31.9497,
        "longitude": 35.9328
      },
      {
        "name": "Al Mafraq",
        
        "latitude": 32.3399,
        "longitude": 36.2052
      },
      {
        "name": "Irbid",
        
        "latitude": 32.55,
        "longitude": 35.85
      },
      {
        "name": "Az Zarqā’",
        
        "latitude": 32.0833,
        "longitude": 36.1
      },
      {
        "name": "Ar Ruşayfah",
        
        "latitude": 32.0178,
        "longitude": 36.0464
      },
      {
        "name": "Al Juwayyidah",
        
        "latitude": 31.9167,
        "longitude": 35.95
      },
      {
        "name": "Saḩāb",
        
        "latitude": 31.8667,
        "longitude": 36.0
      },
      {
        "name": "Ar Ramthā",
        
        "latitude": 32.5589,
        "longitude": 36.0147
      },
      {
        "name": "‘Ajlūn",
        
        "latitude": 32.3325,
        "longitude": 35.7517
      },
      {
        "name": "Al ‘Aqabah",
        
        "latitude": 29.5322,
        "longitude": 35.0061
      }
    ]
  },
  {
    "name": "Ghana",
    "code": "GH",
    "continent": "Africa",
    
    "cities": [
      {
        "name": "Kumasi",
        
        "latitude": 6.7,
        "longitude": -1.625
      },
      {
        "name": "Boankra",
        
        "latitude": 6.6919,
        "longitude": -1.4051
      },
      {
        "name": "Tamale",
        
        "latitude": 9.4075,
        "longitude": -0.8533
      },
      {
        "name": "Domaa-Ahenkro",
        
        "latitude": 7.2739,
        "longitude": -2.8735
      },
      {
        "name": "Accra",
        
        "latitude": 5.5461,
        "longitude": -0.2067
      },
      {
        "name": "Sunyani",
        
        "latitude": 7.336,
        "longitude": -2.336
      },
      {
        "name": "Ashaiman",
        
        "latitude": 5.6995,
        "longitude": -0.0348
      },
      {
        "name": "Obuase",
        
        "latitude": 6.2,
        "longitude": -1.6833
      },
      {
        "name": "Cape Coast",
        
        "latitude": 5.1,
        "longitude": -1.25
      },
      {
        "name": "Tema",
        
        "latitude": 5.6667,
        "longitude": -0.0167
      }
    ]
  },
  {
    "name": "United Arab Emirates",
    "code": "AE",
    "continent": "Asia",
    
    "cities": [
      {
        "name": "Dubai",
        
        "latitude": 25.2631,
        "longitude": 55.2972
      },
      {
        "name": "Abu Dhabi",
        
        "latitude": 24.4667,
        "longitude": 54.3667
      },
      {
        "name": "Sharjah",
        
        "latitude": 25.3575,
        "longitude": 55.3908
      },
      {
        "name": "Al ‘Ayn",
        
        "latitude": 24.2075,
        "longitude": 55.7447
      },
      {
        "name": "‘Ajmān",
        
        "latitude": 25.4136,
        "longitude": 55.4456
      },
      {
        "name": "Ra’s al Khaymah",
        
        "latitude": 25.7667,
        "longitude": 55.95
      },
      {
        "name": "Al Fujayrah",
        
        "latitude": 25.1222,
        "longitude": 56.3344
      },
      {
        "name": "Umm al Qaywayn",
        
        "latitude": 25.5533,
        "longitude": 55.5475
      },
      {
        "name": "Kalbā",
        
        "latitude": 25.0742,
        "longitude": 56.3553
      },
      {
        "name": "Khawr Fakkān",
        
        "latitude": 25.3333,
        "longitude": 56.35
      }
    ]
  },
  {
    "name": "Venezuela",
    "code": "VE",
    "continent": "South America",
    
    "cities": [
      {
        "name": "Caracas",
        
        "latitude": 10.4806,
        "longitude": -66.9036
      },
      {
        "name": "Maracaibo",
        
        "latitude": 10.6333,
        "longitude": -71.6333
      },
      {
        "name": "Valencia",
        
        "latitude": 10.1833,
        "longitude": -68.0
      },
      {
        "name": "Maracay",
        
        "latitude": 10.2469,
        "longitude": -67.5961
      },
      {
        "name": "Barquisimeto",
        
        "latitude": 10.0636,
        "longitude": -69.3347
      },
      {
        "name": "Ciudad Guayana",
        
        "latitude": 8.3667,
        "longitude": -62.65
      },
      {
        "name": "Barcelona",
        
        "latitude": 10.1403,
        "longitude": -64.6833
      },
      {
        "name": "Catia La Mar",
        
        "latitude": 10.6,
        "longitude": -67.0333
      },
      {
        "name": "Maturín",
        
        "latitude": 9.75,
        "longitude": -63.183
      },
      {
        "name": "Puerto La Cruz",
        
        "latitude": 10.2,
        "longitude": -64.6333
      }
    ]
  },
  {
    "name": "Morocco",
    "code": "MA",
    "continent": "Africa",
    
    "cities": [
      {
        "name": "Casablanca",
        
        "latitude": 33.5333,
        "longitude": -7.5833
      },
      {
        "name": "Tangier",
        
        "latitude": 35.7767,
        "longitude": -5.8039
      },
      {
        "name": "Fès",
        
        "latitude": 34.0433,
        "longitude": -5.0033
      },
      {
        "name": "Marrakech",
        
        "latitude": 31.63,
        "longitude": -8.0089
      },
      {
        "name": "Sale",
        
        "latitude": 34.0333,
        "longitude": -6.8
      },
      {
        "name": "Oujda-Angad",
        
        "latitude": 34.6867,
        "longitude": -1.9114
      },
      {
        "name": "Rabat",
        
        "latitude": 34.0209,
        "longitude": -6.8416
      },
      {
        "name": "Agadir",
        
        "latitude": 30.4214,
        "longitude": -9.5831
      },
      {
        "name": "Meknès",
        
        "latitude": 33.895,
        "longitude": -5.5547
      },
      {
        "name": "Kenitra",
        
        "latitude": 34.25,
        "longitude": -6.5833
      }
    ]
  },
  {
    "name": "Bolivia",
    "code": "BO",
    "continent": "South America",
    
    "cities": [
      {
        "name": "Santa Cruz de la Sierra",
        
        "latitude": -17.7892,
        "longitude": -63.1975
      },
      {
        "name": "El Alto",
        
        "latitude": -16.5047,
        "longitude": -68.1633
      },
      {
        "name": "Cochabamba",
        
        "latitude": -17.3883,
        "longitude": -66.1597
      },
      {
        "name": "Oruro",
        
        "latitude": -17.9667,
        "longitude": -67.1167
      },
      {
        "name": "La Paz",
        
        "latitude": -16.4958,
        "longitude": -68.1333
      },
      {
        "name": "Sucre",
        
        "latitude": -19.0475,
        "longitude": -65.26
      },
      {
        "name": "Tarija",
        
        "latitude": -21.5333,
        "longitude": -64.7333
      },
      {
        "name": "Potosí",
        
        "latitude": -19.5892,
        "longitude": -65.7533
      },
      {
        "name": "Oruro",
        
        "latitude": -17.9799,
        "longitude": -67.13
      },
      {
        "name": "Warnes",
        
        "latitude": -17.5167,
        "longitude": -63.1667
      }
    ]
  },
  {
    "name": "Uzbekistan",
    "code": "UZ",
    "continent": "Asia",
    
    "cities": [
      {
        "name": "Tashkent",
        
        "latitude": 41.3111,
        "longitude": 69.2797
      },
      {
        "name": "Namangan",
        
        "latitude": 41.0011,
        "longitude": 71.6683
      },
      {
        "name": "Andijon",
        
        "latitude": 40.7833,
        "longitude": 72.3333
      },
      {
        "name": "Samarkand",
        
        "latitude": 39.6547,
        "longitude": 66.9758
      },
      {
        "name": "Nukus",
        
        "latitude": 42.4667,
        "longitude": 59.6
      },
      {
        "name": "Farg‘ona",
        
        "latitude": 40.3864,
        "longitude": 71.7864
      },
      {
        "name": "Bukhara",
        
        "latitude": 39.7667,
        "longitude": 64.4231
      },
      {
        "name": "Qarshi",
        
        "latitude": 38.8667,
        "longitude": 65.8
      },
      {
        "name": "Qo‘qon",
        
        "latitude": 40.5286,
        "longitude": 70.9425
      },
      {
        "name": "Marg‘ilon",
        
        "latitude": 40.4711,
        "longitude": 71.7247
      }
    ]
  },
  {
    "name": "Ecuador",
    "code": "EC",
    "continent": "South America",
    
    "cities": [
      {
        "name": "Guayaquil",
        
        "latitude": -2.19,
        "longitude": -79.8875
      },
      {
        "name": "Quito",
        
        "latitude": -0.22,
        "longitude": -78.5125
      },
      {
        "name": "Cuenca",
        
        "latitude": -2.8974,
        "longitude": -79.0045
      },
      {
        "name": "Santo Domingo de los Colorados",
        
        "latitude": -0.2542,
        "longitude": -79.1719
      },
      {
        "name": "Eloy Alfaro",
        
        "latitude": -2.1733,
        "longitude": -79.8311
      },
      {
        "name": "Machala",
        
        "latitude": -3.2667,
        "longitude": -79.9667
      },
      {
        "name": "Manta",
        
        "latitude": -0.95,
        "longitude": -80.7162
      },
      {
        "name": "Portoviejo",
        
        "latitude": -1.0561,
        "longitude": -80.4553
      },
      {
        "name": "Loja",
        
        "latitude": -3.9833,
        "longitude": -79.2
      },
      {
        "name": "Quevedo",
        
        "latitude": -1.0333,
        "longitude": -79.45
      }
    ]
  },
  {
    "name": "Burkina Faso",
    "code": "BF",
    "continent": "Africa",
    
    "cities": [
      {
        "name": "Ouagadougou",
        
        "latitude": 12.3686,
        "longitude": -1.5275
      },
      {
        "name": "Bobo-Dioulasso",
        
        "latitude": 11.1833,
        "longitude": -4.2833
      },
      {
        "name": "Koudougou",
        
        "latitude": 12.25,
        "longitude": -2.3667
      },
      {
        "name": "Ouahigouya",
        
        "latitude": 13.5833,
        "longitude": -2.4167
      },
      {
        "name": "Kaya",
        
        "latitude": 13.0833,
        "longitude": -1.0833
      },
      {
        "name": "Banfora",
        
        "latitude": 10.6308,
        "longitude": -4.7589
      },
      {
        "name": "Pouytenga",
        
        "latitude": 12.25,
        "longitude": -0.4333
      },
      {
        "name": "Houndé",
        
        "latitude": 11.5,
        "longitude": -3.5167
      },
      {
        "name": "Fada Ngourma",
        
        "latitude": 12.05,
        "longitude": 0.3667
      },
      {
        "name": "Dédougou",
        
        "latitude": 12.4667,
        "longitude": -3.4667
      }
    ]
  },
  {
    "name": "Greece",
    "code": "GR",
    "continent": "Europe",
    
    "cities": [
      {
        "name": "Athens",
        
        "latitude": 37.9842,
        "longitude": 23.7281
      },
      {
        "name": "Thessaloníki",
        
        "latitude": 40.6403,
        "longitude": 22.9356
      },
      {
        "name": "Piraeus",
        
        "latitude": 37.943,
        "longitude": 23.6469
      },
      {
        "name": "Týrnavos",
        
        "latitude": 39.7333,
        "longitude": 22.2833
      },
      {
        "name": "Irákleio",
        
        "latitude": 35.3403,
        "longitude": 25.1344
      },
      {
        "name": "Pátra",
        
        "latitude": 38.25,
        "longitude": 21.7333
      },
      {
        "name": "Peristéri",
        
        "latitude": 38.0167,
        "longitude": 23.6833
      },
      {
        "name": "Lárisa",
        
        "latitude": 39.6417,
        "longitude": 22.4167
      },
      {
        "name": "Acharnés",
        
        "latitude": 38.0833,
        "longitude": 23.7333
      },
      {
        "name": "Kallithéa",
        
        "latitude": 37.95,
        "longitude": 23.7
      }
    ]
  },
  {
    "name": "Guatemala",
    "code": "GT",
    "continent": "North America",
    
    "cities": [
      {
        "name": "Guatemala City",
        
        "latitude": 14.6417,
        "longitude": -90.5133
      },
      {
        "name": "Mixco",
        
        "latitude": 14.6331,
        "longitude": -90.6064
      },
      {
        "name": "Villa Nueva",
        
        "latitude": 14.5269,
        "longitude": -90.5875
      },
      {
        "name": "San Juan Sacatepéquez",
        
        "latitude": 14.7189,
        "longitude": -90.6442
      },
      {
        "name": "San Pedro Carchá",
        
        "latitude": 15.4667,
        "longitude": -90.3
      },
      {
        "name": "Cobán",
        
        "latitude": 15.4833,
        "longitude": -90.3667
      },
      {
        "name": "Quetzaltenango",
        
        "latitude": 14.8333,
        "longitude": -91.5167
      },
      {
        "name": "Jalapa",
        
        "latitude": 14.6333,
        "longitude": -89.9833
      },
      {
        "name": "Escuintla",
        
        "latitude": 14.2978,
        "longitude": -90.7869
      },
      {
        "name": "Villa Canales",
        
        "latitude": 14.4833,
        "longitude": -90.5333
      }
    ]
  },
  {
    "name": "Kuwait",
    "code": "KW",
    "continent": "Asia",
    
    "cities": [
      {
        "name": "Kuwait City",
        
        "latitude": 29.3697,
        "longitude": 47.9783
      },
      {
        "name": "Al Jahrā’",
        
        "latitude": 29.35,
        "longitude": 47.6833
      },
      {
        "name": "Abū Ḩulayfah",
        
        "latitude": 29.1322,
        "longitude": 48.1261
      },
      {
        "name": "Al Aḩmadī",
        
        "latitude": 29.0769,
        "longitude": 48.0838
      },
      {
        "name": "Ar Riqqah",
        
        "latitude": 29.1489,
        "longitude": 48.1057
      }
    ]
  },
  {
    "name": "Ukraine",
    "code": "UA",
    "continent": "Europe",
    
    "cities": [
      {
        "name": "Kyiv",
        
        "latitude": 50.45,
        "longitude": 30.5233
      },
      {
        "name": "Kharkiv",
        
        "latitude": 49.9925,
        "longitude": 36.2311
      },
      {
        "name": "Odesa",
        
        "latitude": 46.492,
        "longitude": 30.7081
      },
      {
        "name": "Dnipro",
        
        "latitude": 48.4675,
        "longitude": 35.04
      },
      {
        "name": "Donetsk",
        
        "latitude": 48.0028,
        "longitude": 37.8053
      },
      {
        "name": "Lviv",
        
        "latitude": 49.8425,
        "longitude": 24.0322
      },
      {
        "name": "Zaporizhzhia",
        
        "latitude": 47.85,
        "longitude": 35.1175
      },
      {
        "name": "Bazal’tove",
        
        "latitude": 50.6765,
        "longitude": 26.16
      },
      {
        "name": "Kryvyi Rih",
        
        "latitude": 47.91,
        "longitude": 33.39
      },
      {
        "name": "Sevastopol",
        
        "latitude": 44.605,
        "longitude": 33.5225
      }
    ]
  },
  {
    "name": "Korea, North",
    "code": "KP",
    "continent": "Asia",
    
    "cities": [
      {
        "name": "Pyongyang",
        
        "latitude": 39.0167,
        "longitude": 125.7475
      },
      {
        "name": "Hamhŭng",
        
        "latitude": 39.9167,
        "longitude": 127.5333
      },
      {
        "name": "Nampo",
        
        "latitude": 38.7356,
        "longitude": 125.4089
      },
      {
        "name": "Ch’ŏngjin",
        
        "latitude": 41.7833,
        "longitude": 129.7667
      },
      {
        "name": "Sunch’ŏn",
        
        "latitude": 39.4167,
        "longitude": 125.9333
      },
      {
        "name": "Wŏnsan",
        
        "latitude": 39.1475,
        "longitude": 127.4461
      },
      {
        "name": "Sinŭiju",
        
        "latitude": 40.1,
        "longitude": 124.4
      },
      {
        "name": "Tanch’ŏn",
        
        "latitude": 40.458,
        "longitude": 128.911
      },
      {
        "name": "Kaech’ŏn",
        
        "latitude": 39.6986,
        "longitude": 125.9061
      },
      {
        "name": "Sariwŏn",
        
        "latitude": 38.5064,
        "longitude": 125.7597
      }
    ]
  },
  {
    "name": "Taiwan",
    "code": "TW",
    "continent": "Asia",
    
    "cities": [
      {
        "name": "Taichung",
        
        "latitude": 24.1439,
        "longitude": 120.6794
      },
      {
        "name": "Kaohsiung",
        
        "latitude": 22.615,
        "longitude": 120.2975
      },
      {
        "name": "Taipei",
        
        "latitude": 25.0375,
        "longitude": 121.5625
      },
      {
        "name": "Tainan",
        
        "latitude": 22.9833,
        "longitude": 120.1833
      },
      {
        "name": "Hsinchu",
        
        "latitude": 24.8167,
        "longitude": 120.9833
      },
      {
        "name": "Taoyuan District",
        
        "latitude": 24.9913,
        "longitude": 121.3143
      },
      {
        "name": "Keelung",
        
        "latitude": 25.1333,
        "longitude": 121.7333
      },
      {
        "name": "Chiayi",
        
        "latitude": 23.48,
        "longitude": 120.4497
      },
      {
        "name": "Changhua",
        
        "latitude": 24.0667,
        "longitude": 120.5333
      },
      {
        "name": "Zhubei",
        
        "latitude": 24.8333,
        "longitude": 121.0119
      }
    ]
  },
  {
    "name": "Italy",
    "code": "IT",
    "continent": "Europe",
    
    "cities": [
      {
        "name": "Rome",
        
        "latitude": 41.8931,
        "longitude": 12.4828
      },
      {
        "name": "Milan",
        
        "latitude": 45.4669,
        "longitude": 9.19
      },
      {
        "name": "Naples",
        
        "latitude": 40.8358,
        "longitude": 14.2486
      },
      {
        "name": "Turin",
        
        "latitude": 45.0792,
        "longitude": 7.6761
      },
      {
        "name": "Palermo",
        
        "latitude": 38.1157,
        "longitude": 13.3613
      },
      {
        "name": "Genoa",
        
        "latitude": 44.4072,
        "longitude": 8.934
      },
      {
        "name": "Bologna",
        
        "latitude": 44.4939,
        "longitude": 11.3428
      },
      {
        "name": "Florence",
        
        "latitude": 43.7714,
        "longitude": 11.2542
      },
      {
        "name": "Bari",
        
        "latitude": 41.1253,
        "longitude": 16.8667
      },
      {
        "name": "Catania",
        
        "latitude": 37.5027,
        "longitude": 15.0873
      }
    ]
  },
  {
    "name": "Syria",
    "code": "SY",
    "continent": "Asia",
    
    "cities": [
      {
        "name": "Damascus",
        
        "latitude": 33.502,
        "longitude": 36.2981
      },
      {
        "name": "Aleppo",
        
        "latitude": 36.2319,
        "longitude": 37.1681
      },
      {
        "name": "Homs",
        
        "latitude": 34.7319,
        "longitude": 36.7181
      },
      {
        "name": "Latakia",
        
        "latitude": 35.54,
        "longitude": 35.78
      },
      {
        "name": "Ḩamāh",
        
        "latitude": 35.1503,
        "longitude": 36.73
      },
      {
        "name": "Ar Raqqah",
        
        "latitude": 35.9304,
        "longitude": 39.02
      },
      {
        "name": "Dayr az Zawr",
        
        "latitude": 35.3304,
        "longitude": 40.13
      },
      {
        "name": "Al Ḩasakah",
        
        "latitude": 36.4833,
        "longitude": 40.75
      },
      {
        "name": "Al Qāmishlī",
        
        "latitude": 37.03,
        "longitude": 41.23
      },
      {
        "name": "Idlib",
        
        "latitude": 35.9297,
        "longitude": 36.6317
      }
    ]
  },
  {
    "name": "Congo (Brazzaville)",
    "code": "CG",
    "continent": "Africa",
    
    "cities": [
      {
        "name": "Brazzaville",
        
        "latitude": -4.2667,
        "longitude": 15.2667
      },
      {
        "name": "Pointe-Noire",
        
        "latitude": -4.7975,
        "longitude": 11.8503
      },
      {
        "name": "Tchibota",
        
        "latitude": -4.1794,
        "longitude": 11.3731
      },
      {
        "name": "Dolisie",
        
        "latitude": -4.2006,
        "longitude": 12.6792
      },
      {
        "name": "Kayes",
        
        "latitude": -4.1683,
        "longitude": 13.2933
      },
      {
        "name": "Oyo",
        
        "latitude": -1.1603,
        "longitude": 15.9736
      },
      {
        "name": "Bétou",
        
        "latitude": 3.0594,
        "longitude": 18.5142
      },
      {
        "name": "Madingou",
        
        "latitude": -4.1642,
        "longitude": 13.5517
      },
      {
        "name": "Impfondo",
        
        "latitude": 1.6186,
        "longitude": 18.0622
      },
      {
        "name": "Hinda",
        
        "latitude": -4.6167,
        "longitude": 12.0406
      }
    ]
  },
  {
    "name": "Yemen",
    "code": "YE",
    "continent": "Asia",
    
    "cities": [
      {
        "name": "Sanaa",
        
        "latitude": 15.3483,
        "longitude": 44.2064
      },
      {
        "name": "Aden",
        
        "latitude": 12.8,
        "longitude": 45.0333
      },
      {
        "name": "Al Mukallā",
        
        "latitude": 14.5333,
        "longitude": 49.1333
      },
      {
        "name": "Ta‘izz",
        
        "latitude": 13.5789,
        "longitude": 44.0219
      },
      {
        "name": "Al Ḩudaydah",
        
        "latitude": 14.8022,
        "longitude": 42.9511
      },
      {
        "name": "Ibb",
        
        "latitude": 13.9759,
        "longitude": 44.1709
      },
      {
        "name": "Ibb",
        
        "latitude": 13.9667,
        "longitude": 44.1667
      },
      {
        "name": "Dhamār",
        
        "latitude": 14.55,
        "longitude": 44.4017
      },
      {
        "name": "Al Manşūrah",
        
        "latitude": 12.8531,
        "longitude": 44.9722
      },
      {
        "name": "Al Misrākh",
        
        "latitude": 13.47,
        "longitude": 44.0375
      }
    ]
  },
  {
    "name": "Lebanon",
    "code": "LB",
    "continent": "Asia",
    
    "cities": [
      {
        "name": "Beirut",
        
        "latitude": 33.8981,
        "longitude": 35.5058
      },
      {
        "name": "Tripoli",
        
        "latitude": 34.4367,
        "longitude": 35.8344
      },
      {
        "name": "Sidon",
        
        "latitude": 33.5606,
        "longitude": 35.3758
      },
      {
        "name": "El Minié",
        
        "latitude": 34.447,
        "longitude": 35.8178
      },
      {
        "name": "Borj Hammoud",
        
        "latitude": 33.8936,
        "longitude": 35.5403
      },
      {
        "name": "Joünié",
        
        "latitude": 33.9697,
        "longitude": 35.6156
      },
      {
        "name": "Zahlé",
        
        "latitude": 33.8333,
        "longitude": 35.9167
      },
      {
        "name": "Baabda",
        
        "latitude": 33.8333,
        "longitude": 35.5333
      },
      {
        "name": "Baalbek",
        
        "latitude": 34.0063,
        "longitude": 36.2073
      },
      {
        "name": "Nabatîyé",
        
        "latitude": 33.3833,
        "longitude": 35.45
      }
    ]
  },
  {
    "name": "Romania",
    "code": "RO",
    "continent": "Europe",
    
    "cities": [
      {
        "name": "Bucharest",
        
        "latitude": 44.4325,
        "longitude": 26.1039
      },
      {
        "name": "Cluj-Napoca",
        
        "latitude": 46.7667,
        "longitude": 23.5833
      },
      {
        "name": "Iaşi",
        
        "latitude": 47.1622,
        "longitude": 27.5889
      },
      {
        "name": "Constanţa",
        
        "latitude": 44.1667,
        "longitude": 28.6333
      },
      {
        "name": "Timişoara",
        
        "latitude": 45.7597,
        "longitude": 21.23
      },
      {
        "name": "Braşov",
        
        "latitude": 45.6667,
        "longitude": 25.6167
      },
      {
        "name": "Craiova",
        
        "latitude": 44.3333,
        "longitude": 23.8167
      },
      {
        "name": "Galaţi",
        
        "latitude": 45.4233,
        "longitude": 28.0425
      },
      {
        "name": "Oradea",
        
        "latitude": 47.0722,
        "longitude": 21.9211
      },
      {
        "name": "Ploieşti",
        
        "latitude": 44.9411,
        "longitude": 26.0225
      }
    ]
  },
  {
    "name": "Algeria",
    "code": "DZ",
    "continent": "Africa",
    
    "cities": [
      {
        "name": "Algiers",
        
        "latitude": 36.7325,
        "longitude": 3.0872
      },
      {
        "name": "Oran",
        
        "latitude": 35.6969,
        "longitude": -0.6331
      },
      {
        "name": "Constantine",
        
        "latitude": 36.35,
        "longitude": 6.6
      },
      {
        "name": "Batna",
        
        "latitude": 35.55,
        "longitude": 6.1667
      },
      {
        "name": "Sétif",
        
        "latitude": 36.19,
        "longitude": 5.41
      },
      {
        "name": "Annaba",
        
        "latitude": 36.9,
        "longitude": 7.7667
      },
      {
        "name": "Sidi Aïssa",
        
        "latitude": 36.5,
        "longitude": 4.2978
      },
      {
        "name": "Sidi Bel Abbès",
        
        "latitude": 35.1939,
        "longitude": -0.6414
      },
      {
        "name": "Biskra",
        
        "latitude": 34.85,
        "longitude": 5.7333
      },
      {
        "name": "Tébessa",
        
        "latitude": 35.4,
        "longitude": 8.1167
      }
    ]
  },
  {
    "name": "Azerbaijan",
    "code": "AZ",
    "continent": "Asia",
    
    "cities": [
      {
        "name": "Baku",
        
        "latitude": 40.3667,
        "longitude": 49.8352
      },
      {
        "name": "Sumqayıt",
        
        "latitude": 40.5961,
        "longitude": 49.67
      },
      {
        "name": "Gəncə",
        
        "latitude": 40.6828,
        "longitude": 46.3606
      },
      {
        "name": "Mingəçevir",
        
        "latitude": 40.77,
        "longitude": 47.0489
      },
      {
        "name": "Xırdalan",
        
        "latitude": 40.4486,
        "longitude": 49.7564
      },
      {
        "name": "Naxçıvan",
        
        "latitude": 39.2089,
        "longitude": 45.4122
      },
      {
        "name": "Şatrovka",
        
        "latitude": 39.829,
        "longitude": 48.9478
      },
      {
        "name": "Qaraçuxur",
        
        "latitude": 40.3969,
        "longitude": 49.9733
      },
      {
        "name": "Hövsan",
        
        "latitude": 40.3753,
        "longitude": 50.0839
      },
      {
        "name": "Bakıxanov",
        
        "latitude": 40.4217,
        "longitude": 49.9644
      }
    ]
  },
  {
    "name": "Kazakhstan",
    "code": "KZ",
    "continent": "Asia",
    
    "cities": [
      {
        "name": "Almaty",
        
        "latitude": 43.24,
        "longitude": 76.915
      },
      {
        "name": "Shymkent",
        
        "latitude": 42.3167,
        "longitude": 69.5958
      },
      {
        "name": "Astana",
        
        "latitude": 51.1472,
        "longitude": 71.4222
      },
      {
        "name": "Qaraghandy",
        
        "latitude": 49.8028,
        "longitude": 73.1056
      },
      {
        "name": "Öskemen",
        
        "latitude": 49.9833,
        "longitude": 82.6167
      },
      {
        "name": "Aqtöbe",
        
        "latitude": 50.2836,
        "longitude": 57.2297
      },
      {
        "name": "Taraz",
        
        "latitude": 42.9,
        "longitude": 71.3667
      },
      {
        "name": "Semey",
        
        "latitude": 50.4333,
        "longitude": 80.2667
      },
      {
        "name": "Pavlodar",
        
        "latitude": 52.3,
        "longitude": 76.95
      },
      {
        "name": "Türkistan",
        
        "latitude": 43.3019,
        "longitude": 68.2692
      }
    ]
  },
  {
    "name": "Austria",
    "code": "AT",
    "continent": "Europe",
    
    "cities": [
      {
        "name": "Vienna",
        
        "latitude": 48.2083,
        "longitude": 16.3725
      },
      {
        "name": "Graz",
        
        "latitude": 47.0708,
        "longitude": 15.4386
      },
      {
        "name": "Linz",
        
        "latitude": 48.3058,
        "longitude": 14.2864
      },
      {
        "name": "Lochau",
        
        "latitude": 47.5167,
        "longitude": 9.75
      },
      {
        "name": "Salzburg",
        
        "latitude": 47.8,
        "longitude": 13.045
      },
      {
        "name": "Innsbruck",
        
        "latitude": 47.2683,
        "longitude": 11.3933
      },
      {
        "name": "Klagenfurt",
        
        "latitude": 46.6167,
        "longitude": 14.3
      },
      {
        "name": "Wels",
        
        "latitude": 48.15,
        "longitude": 14.0167
      },
      {
        "name": "Villach",
        
        "latitude": 46.6167,
        "longitude": 13.85
      },
      {
        "name": "Sankt Pölten",
        
        "latitude": 48.2,
        "longitude": 15.6167
      }
    ]
  },
  {
    "name": "Cambodia",
    "code": "KH",
    "continent": "Asia",
    
    "cities": [
      {
        "name": "Phnom Penh",
        
        "latitude": 11.5696,
        "longitude": 104.921
      },
      {
        "name": "Siem Reap",
        
        "latitude": 13.3622,
        "longitude": 103.8597
      },
      {
        "name": "Battambang",
        
        "latitude": 13.1028,
        "longitude": 103.1983
      },
      {
        "name": "Kampong Cham",
        
        "latitude": 12.0,
        "longitude": 105.45
      },
      {
        "name": "Sisophon",
        
        "latitude": 13.5839,
        "longitude": 102.9736
      },
      {
        "name": "Paoy Paet",
        
        "latitude": 13.65,
        "longitude": 102.5667
      },
      {
        "name": "Kampong Trach",
        
        "latitude": 10.5585,
        "longitude": 104.4675
      },
      {
        "name": "Sihanoukville",
        
        "latitude": 10.6333,
        "longitude": 103.5
      },
      {
        "name": "Samraong",
        
        "latitude": 14.25,
        "longitude": 103.5833
      },
      {
        "name": "Kratie",
        
        "latitude": 12.4881,
        "longitude": 106.0188
      }
    ]
  },
  {
    "name": "Somalia",
    "code": "SO",
    "continent": "Africa",
    
    "cities": [
      {
        "name": "Mogadishu",
        
        "latitude": 2.0392,
        "longitude": 45.3419
      },
      {
        "name": "Hargeysa",
        
        "latitude": 9.56,
        "longitude": 44.065
      },
      {
        "name": "Baidoa",
        
        "latitude": 3.1167,
        "longitude": 43.65
      },
      {
        "name": "Baardheere",
        
        "latitude": 2.3447,
        "longitude": 42.2764
      },
      {
        "name": "Gaalkacyo",
        
        "latitude": 6.7697,
        "longitude": 47.4308
      },
      {
        "name": "Boosaaso",
        
        "latitude": 11.28,
        "longitude": 49.18
      },
      {
        "name": "Cadaado",
        
        "latitude": 6.1393,
        "longitude": 46.6241
      },
      {
        "name": "Garoowe",
        
        "latitude": 8.4,
        "longitude": 48.4833
      },
      {
        "name": "Berbera",
        
        "latitude": 10.4396,
        "longitude": 45.0143
      },
      {
        "name": "Burco",
        
        "latitude": 9.5221,
        "longitude": 45.5336
      }
    ]
  },
  {
    "name": "Cuba",
    "code": "CU",
    "continent": "North America",
    
    "cities": [
      {
        "name": "Havana",
        
        "latitude": 23.1367,
        "longitude": -82.3589
      },
      {
        "name": "Santiago de Cuba",
        
        "latitude": 20.0217,
        "longitude": -75.8294
      },
      {
        "name": "Holguín",
        
        "latitude": 20.8872,
        "longitude": -76.2631
      },
      {
        "name": "Camagüey",
        
        "latitude": 21.3786,
        "longitude": -77.9186
      },
      {
        "name": "Santa Clara",
        
        "latitude": 22.4067,
        "longitude": -79.9531
      },
      {
        "name": "Bayamo",
        
        "latitude": 20.3795,
        "longitude": -76.6433
      },
      {
        "name": "Guantánamo",
        
        "latitude": 20.1383,
        "longitude": -75.2061
      },
      {
        "name": "Carlos Manuel de Céspedes",
        
        "latitude": 21.5767,
        "longitude": -78.2775
      },
      {
        "name": "Arroyo Naranjo",
        
        "latitude": 23.0436,
        "longitude": -82.3328
      },
      {
        "name": "Las Tunas",
        
        "latitude": 20.9667,
        "longitude": -76.95
      }
    ]
  },
  {
    "name": "Poland",
    "code": "PL",
    "continent": "Europe",
    
    "cities": [
      {
        "name": "Warsaw",
        
        "latitude": 52.23,
        "longitude": 21.0111
      },
      {
        "name": "Kraków",
        
        "latitude": 50.0614,
        "longitude": 19.9372
      },
      {
        "name": "Gdańsk",
        
        "latitude": 54.3475,
        "longitude": 18.6453
      },
      {
        "name": "Wrocław",
        
        "latitude": 51.11,
        "longitude": 17.0325
      },
      {
        "name": "Łódź",
        
        "latitude": 51.7769,
        "longitude": 19.4547
      },
      {
        "name": "Poznań",
        
        "latitude": 52.4083,
        "longitude": 16.9336
      },
      {
        "name": "Szczecin",
        
        "latitude": 53.4325,
        "longitude": 14.5481
      },
      {
        "name": "Bydgoszcz",
        
        "latitude": 53.1219,
        "longitude": 18.0003
      },
      {
        "name": "Lublin",
        
        "latitude": 51.25,
        "longitude": 22.5667
      },
      {
        "name": "Białystok",
        
        "latitude": 53.1353,
        "longitude": 23.1456
      }
    ]
  },
  {
    "name": "Belarus",
    "code": "BY",
    "continent": "Europe",
    
    "cities": [
      {
        "name": "Minsk",
        
        "latitude": 53.9006,
        "longitude": 27.5586
      },
      {
        "name": "Homyel’",
        
        "latitude": 52.4453,
        "longitude": 30.9842
      },
      {
        "name": "Hrodna",
        
        "latitude": 53.6667,
        "longitude": 23.8333
      },
      {
        "name": "Vitsyebsk",
        
        "latitude": 55.1917,
        "longitude": 30.2056
      },
      {
        "name": "Mahilyow",
        
        "latitude": 53.9167,
        "longitude": 30.35
      },
      {
        "name": "Brest",
        
        "latitude": 52.1347,
        "longitude": 23.6569
      },
      {
        "name": "Babruysk",
        
        "latitude": 53.15,
        "longitude": 29.2333
      },
      {
        "name": "Baranavichy",
        
        "latitude": 53.1333,
        "longitude": 26.0167
      },
      {
        "name": "Pinsk",
        
        "latitude": 52.1153,
        "longitude": 26.1031
      },
      {
        "name": "Mazyr",
        
        "latitude": 52.05,
        "longitude": 29.25
      }
    ]
  },
  {
    "name": "Netherlands",
    "code": "NL",
    "continent": "Europe",
    
    "cities": [
      {
        "name": "Tilburg",
        
        "latitude": 51.5572,
        "longitude": 5.0911
      },
      {
        "name": "Amsterdam",
        
        "latitude": 52.3728,
        "longitude": 4.8936
      },
      {
        "name": "Rotterdam",
        
        "latitude": 51.92,
        "longitude": 4.48
      },
      {
        "name": "The Hague",
        
        "latitude": 52.08,
        "longitude": 4.31
      },
      {
        "name": "Utrecht",
        
        "latitude": 52.0908,
        "longitude": 5.1217
      },
      {
        "name": "Eindhoven",
        
        "latitude": 51.4344,
        "longitude": 5.4842
      },
      {
        "name": "Groningen",
        
        "latitude": 53.2167,
        "longitude": 6.5667
      },
      {
        "name": "Almere",
        
        "latitude": 52.3667,
        "longitude": 5.2167
      },
      {
        "name": "Breda",
        
        "latitude": 51.5875,
        "longitude": 4.775
      },
      {
        "name": "Nijmegen",
        
        "latitude": 51.8425,
        "longitude": 5.8528
      }
    ]
  },
  {
    "name": "Puerto Rico",
    "code": "PR",
    "continent": "North America",
    
    "cities": [
      {
        "name": "San Juan",
        
        "latitude": 18.3985,
        "longitude": -66.061
      },
      {
        "name": "Aguadilla",
        
        "latitude": 18.4382,
        "longitude": -67.1537
      },
      {
        "name": "Bayamón",
        
        "latitude": 18.3794,
        "longitude": -66.1635
      },
      {
        "name": "Carolina",
        
        "latitude": 18.4054,
        "longitude": -65.9792
      },
      {
        "name": "Arecibo",
        
        "latitude": 18.4491,
        "longitude": -66.7387
      },
      {
        "name": "Ponce",
        
        "latitude": 18.0127,
        "longitude": -66.6212
      },
      {
        "name": "San Germán",
        
        "latitude": 18.0827,
        "longitude": -67.046
      },
      {
        "name": "Mayagüez",
        
        "latitude": 18.2003,
        "longitude": -67.1397
      },
      {
        "name": "Caguas",
        
        "latitude": 18.2319,
        "longitude": -66.0388
      },
      {
        "name": "Guaynabo",
        
        "latitude": 18.3832,
        "longitude": -66.1134
      }
    ]
  },
  {
    "name": "Zambia",
    "code": "ZM",
    "continent": "Africa",
    
    "cities": [
      {
        "name": "Lusaka",
        
        "latitude": -15.4167,
        "longitude": 28.2833
      },
      {
        "name": "Kitwe",
        
        "latitude": -12.8167,
        "longitude": 28.2
      },
      {
        "name": "Ndola",
        
        "latitude": -12.9689,
        "longitude": 28.6325
      },
      {
        "name": "Chipata",
        
        "latitude": -13.6453,
        "longitude": 32.6464
      },
      {
        "name": "Kabwe",
        
        "latitude": -14.4333,
        "longitude": 28.45
      },
      {
        "name": "Chingola",
        
        "latitude": -12.5333,
        "longitude": 27.85
      },
      {
        "name": "Kafue",
        
        "latitude": -15.7667,
        "longitude": 28.1833
      },
      {
        "name": "Mongu",
        
        "latitude": -15.2775,
        "longitude": 23.1319
      },
      {
        "name": "Luanshya",
        
        "latitude": -13.1333,
        "longitude": 28.4
      },
      {
        "name": "Mufulira",
        
        "latitude": -12.5356,
        "longitude": 28.2419
      }
    ]
  },
  {
    "name": "Oman",
    "code": "OM",
    "continent": "Asia",
    
    "cities": [
      {
        "name": "Masqaţ",
        
        "latitude": 23.614,
        "longitude": 58.5911
      },
      {
        "name": "Muscat",
        
        "latitude": 23.6139,
        "longitude": 58.5922
      },
      {
        "name": "Bawshar",
        
        "latitude": 23.5777,
        "longitude": 58.3998
      },
      {
        "name": "Şalālah",
        
        "latitude": 17.0197,
        "longitude": 54.0897
      },
      {
        "name": "Maţraḩ",
        
        "latitude": 23.6167,
        "longitude": 58.5667
      },
      {
        "name": "As Suwayq",
        
        "latitude": 23.8494,
        "longitude": 57.4386
      },
      {
        "name": "Ar Rustāq",
        
        "latitude": 23.3908,
        "longitude": 57.4244
      },
      {
        "name": "Al Muḑaybī",
        
        "latitude": 22.5703,
        "longitude": 58.1211
      },
      {
        "name": "Bahlā’",
        
        "latitude": 22.9789,
        "longitude": 57.3047
      },
      {
        "name": "Nizwá",
        
        "latitude": 22.9333,
        "longitude": 57.5333
      }
    ]
  },
  {
    "name": "Uruguay",
    "code": "UY",
    "continent": "South America",
    
    "cities": [
      {
        "name": "Montevideo",
        
        "latitude": -34.9056,
        "longitude": -56.1842
      },
      {
        "name": "Maldonado",
        
        "latitude": -34.9,
        "longitude": -54.95
      },
      {
        "name": "Ciudad de la Costa",
        
        "latitude": -34.8167,
        "longitude": -55.95
      },
      {
        "name": "Salto",
        
        "latitude": -31.3833,
        "longitude": -57.95
      },
      {
        "name": "Paysandú",
        
        "latitude": -32.3214,
        "longitude": -58.0756
      },
      {
        "name": "Las Piedras",
        
        "latitude": -34.7167,
        "longitude": -56.2167
      },
      {
        "name": "Rivera",
        
        "latitude": -30.9025,
        "longitude": -55.5506
      },
      {
        "name": "Tacuarembó",
        
        "latitude": -31.7333,
        "longitude": -55.9833
      },
      {
        "name": "Melo",
        
        "latitude": -32.3667,
        "longitude": -54.1833
      },
      {
        "name": "Mercedes",
        
        "latitude": -33.25,
        "longitude": -58.0333
      }
    ]
  },
  {
    "name": "Hungary",
    "code": "HU",
    "continent": "Europe",
    
    "cities": [
      {
        "name": "Budapest",
        
        "latitude": 47.4983,
        "longitude": 19.0408
      },
      {
        "name": "Győr",
        
        "latitude": 47.6842,
        "longitude": 17.6344
      },
      {
        "name": "Debrecen",
        
        "latitude": 47.53,
        "longitude": 21.6392
      },
      {
        "name": "Szeged",
        
        "latitude": 46.25,
        "longitude": 20.1667
      },
      {
        "name": "Szombathely",
        
        "latitude": 47.2351,
        "longitude": 16.6219
      },
      {
        "name": "Miskolc",
        
        "latitude": 48.1,
        "longitude": 20.7833
      },
      {
        "name": "Pécs",
        
        "latitude": 46.0708,
        "longitude": 18.2331
      },
      {
        "name": "Nyíregyháza",
        
        "latitude": 47.9558,
        "longitude": 21.7168
      },
      {
        "name": "Kecskemét",
        
        "latitude": 46.9075,
        "longitude": 19.6917
      },
      {
        "name": "Sopron",
        
        "latitude": 47.6849,
        "longitude": 16.5831
      }
    ]
  },
  {
    "name": "Uganda",
    "code": "UG",
    "continent": "Africa",
    
    "cities": [
      {
        "name": "Kampala",
        
        "latitude": 0.3136,
        "longitude": 32.5811
      },
      {
        "name": "Nansana",
        
        "latitude": 0.3639,
        "longitude": 32.5286
      },
      {
        "name": "Jinja",
        
        "latitude": 0.4233,
        "longitude": 33.2039
      },
      {
        "name": "Masaka",
        
        "latitude": -0.3411,
        "longitude": 31.7361
      },
      {
        "name": "Kasangati",
        
        "latitude": 0.4378,
        "longitude": 32.6025
      },
      {
        "name": "Mbarara",
        
        "latitude": -0.6133,
        "longitude": 30.6583
      },
      {
        "name": "Njeru",
        
        "latitude": 0.4311,
        "longitude": 33.1478
      },
      {
        "name": "Mukono",
        
        "latitude": 0.3533,
        "longitude": 32.7553
      },
      {
        "name": "Gulu",
        
        "latitude": 2.7817,
        "longitude": 32.2992
      },
      {
        "name": "Hoima",
        
        "latitude": 1.4319,
        "longitude": 31.3525
      }
    ]
  },
  {
    "name": "Guinea",
    "code": "GN",
    "continent": "Africa",
    
    "cities": [
      {
        "name": "Conakry",
        
        "latitude": 9.5092,
        "longitude": -13.7122
      },
      {
        "name": "Mamou",
        
        "latitude": 10.3833,
        "longitude": -12.0833
      },
      {
        "name": "N’Zérékoré",
        
        "latitude": 7.7522,
        "longitude": -8.8217
      },
      {
        "name": "Guéckédou",
        
        "latitude": 8.5667,
        "longitude": -10.1333
      },
      {
        "name": "Kankan",
        
        "latitude": 10.3833,
        "longitude": -9.3
      },
      {
        "name": "Siguiri",
        
        "latitude": 11.4167,
        "longitude": -9.1667
      },
      {
        "name": "Kindia",
        
        "latitude": 10.0497,
        "longitude": -12.8542
      },
      {
        "name": "Boké",
        
        "latitude": 10.94,
        "longitude": -14.3
      },
      {
        "name": "Labé",
        
        "latitude": 11.3167,
        "longitude": -12.2833
      },
      {
        "name": "Faranah",
        
        "latitude": 10.0333,
        "longitude": -10.7333
      }
    ]
  },
  {
    "name": "Tajikistan",
    "code": "TJ",
    "continent": "Asia",
    
    "cities": [
      {
        "name": "Dushanbe",
        
        "latitude": 38.5367,
        "longitude": 68.78
      },
      {
        "name": "Khŭjand",
        
        "latitude": 40.2833,
        "longitude": 69.6333
      },
      {
        "name": "Vahdat",
        
        "latitude": 38.5531,
        "longitude": 69.0206
      },
      {
        "name": "Hisor",
        
        "latitude": 38.5264,
        "longitude": 68.5381
      },